{
  "type": "FeatureCollection",
  "generator": "overpass-turbo",
  "copyright": "The data included in this document is from www.openstreetmap.org. The data is made available under ODbL.",
  "timestamp": "2025-01-26T02:28:26Z",
  "features": [
    {
      "type": "Feature",
      "properties": {
        "@id": "node/359100497",
        "addr:housenumber": "145",
        "addr:street": "Vallejo Street",
        "name": "Bleemer Family Chriopractic and Massage",
        "shop": "massage"
      },
      "geometry": {
        "type": "Point",
        "coordinates": [
          -122.4011064,
          37.7994481
        ]
      },
      "id": "node/359100497"
    },
    {
      "type": "Feature",
      "properties": {
        "@id": "node/359216942",
        "check_date": "2024-08-27",
        "name": "Sutherland-Chan Clinic",
        "shop": "massage"
      },
      "geometry": {
        "type": "Point",
        "coordinates": [
          -79.4035711,
          43.6659225
        ]
      },
      "id": "node/359216942"
    },
    {
      "type": "Feature",
      "properties": {
        "@id": "node/359282126",
        "alt_name": "New Haven Shambhala Center",
        "ele": "17",
        "gnis:feature_id": "1932484",
        "name": "Elm City Wellness",
        "phone": "+1 475 238 7841",
        "shop": "massage",
        "website": "https://elmcitywellness.com"
      },
      "geometry": {
        "type": "Point",
        "coordinates": [
          -72.9164195,
          41.3238409
        ]
      },
      "id": "node/359282126"
    },
    {
      "type": "Feature",
      "properties": {
        "@id": "node/390197014",
        "bicycle_parking": "stands",
        "brand": "Massage Envy",
        "brand:wikidata": "Q22922899",
        "capacity": "2",
        "covered": "no",
        "fee": "no",
        "name": "Massage Envy",
        "outside": "yes",
        "shop": "massage",
        "source": "survey"
      },
      "geometry": {
        "type": "Point",
        "coordinates": [
          -122.419367,
          37.7766336
        ]
      },
      "id": "node/390197014"
    },
    {
      "type": "Feature",
      "properties": {
        "@id": "node/418504536",
        "name": "Well Within",
        "shop": "massage"
      },
      "geometry": {
        "type": "Point",
        "coordinates": [
          -122.0267891,
          36.9705616
        ]
      },
      "id": "node/418504536"
    },
    {
      "type": "Feature",
      "properties": {
        "@id": "node/419367212",
        "addr:housenumber": "94",
        "addr:postcode": "10013",
        "addr:street": "Bayard Street",
        "name": "Fu Kang Reflexology",
        "phone": "+1-646-861-3360",
        "shop": "massage"
      },
      "geometry": {
        "type": "Point",
        "coordinates": [
          -73.9994196,
          40.7160717
        ]
      },
      "id": "node/419367212"
    },
    {
      "type": "Feature",
      "properties": {
        "@id": "node/511792631",
        "addr:housenumber": "3397",
        "addr:street": "Boulevard Monseigneur-Gauthier",
        "name": "Au Centre de la Vie",
        "shop": "massage"
      },
      "geometry": {
        "type": "Point",
        "coordinates": [
          -71.2063004,
          46.8518854
        ]
      },
      "id": "node/511792631"
    },
    {
      "type": "Feature",
      "properties": {
        "@id": "node/529544770",
        "amenity": "spa",
        "name": "Joanne Lipp's European Skin Care"
      },
      "geometry": {
        "type": "Point",
        "coordinates": [
          -79.7121734,
          43.5813004
        ]
      },
      "id": "node/529544770"
    },
    {
      "type": "Feature",
      "properties": {
        "@id": "node/529544771",
        "amenity": "spa"
      },
      "geometry": {
        "type": "Point",
        "coordinates": [
          -79.7120886,
          43.5814026
        ]
      },
      "id": "node/529544771"
    },
    {
      "type": "Feature",
      "properties": {
        "@id": "node/565571279",
        "addr:city": "North York",
        "addr:housenumber": "895",
        "addr:street": "Lawrence Avenue East",
        "name": "Hand & Stone Massage and Facial Spa",
        "opendata:type": "107005",
        "phone": "+1-416-331-8686",
        "shop": "massage"
      },
      "geometry": {
        "type": "Point",
        "coordinates": [
          -79.3475134,
          43.7360323
        ]
      },
      "id": "node/565571279"
    },
    {
      "type": "Feature",
      "properties": {
        "@id": "node/571545786",
        "name": "The Great American Backrub",
        "shop": "massage"
      },
      "geometry": {
        "type": "Point",
        "coordinates": [
          -79.3850522,
          43.6710546
        ]
      },
      "id": "node/571545786"
    },
    {
      "type": "Feature",
      "properties": {
        "@id": "node/577454521",
        "amenity": "spa",
        "level": "+1",
        "name": "TCM Spa"
      },
      "geometry": {
        "type": "Point",
        "coordinates": [
          -79.385564,
          43.6668595
        ]
      },
      "id": "node/577454521"
    },
    {
      "type": "Feature",
      "properties": {
        "@id": "node/581253131",
        "addr:city": "Denver",
        "addr:housenumber": "1616",
        "addr:postcode": "80202",
        "addr:state": "CO",
        "addr:street": "Welton Street",
        "name": "Body Massage Wellness Spa",
        "shop": "massage"
      },
      "geometry": {
        "type": "Point",
        "coordinates": [
          -104.990605,
          39.744814
        ]
      },
      "id": "node/581253131"
    },
    {
      "type": "Feature",
      "properties": {
        "@id": "node/624790078",
        "amenity": "spa"
      },
      "geometry": {
        "type": "Point",
        "coordinates": [
          -79.6194032,
          43.5828855
        ]
      },
      "id": "node/624790078"
    },
    {
      "type": "Feature",
      "properties": {
        "@id": "node/648487942",
        "addr:city": "Waterloo",
        "addr:housenumber": "392",
        "addr:postcode": "N2L 3V1",
        "addr:street": "Albert Street",
        "name": "Mader's Massage Therapy Clinic",
        "phone": "+1-519-885-0721",
        "shop": "massage"
      },
      "geometry": {
        "type": "Point",
        "coordinates": [
          -80.5362433,
          43.4807682
        ]
      },
      "id": "node/648487942"
    },
    {
      "type": "Feature",
      "properties": {
        "@id": "node/651040121",
        "amenity": "spa",
        "name": "Serenity Spa"
      },
      "geometry": {
        "type": "Point",
        "coordinates": [
          -76.490773,
          44.2320317
        ]
      },
      "id": "node/651040121"
    },
    {
      "type": "Feature",
      "properties": {
        "@id": "node/697807968",
        "name": "Sutherland-Chan",
        "shop": "massage"
      },
      "geometry": {
        "type": "Point",
        "coordinates": [
          -79.3821671,
          43.6474184
        ]
      },
      "id": "node/697807968"
    },
    {
      "type": "Feature",
      "properties": {
        "@id": "node/699643014",
        "addr:city": "Mississauga",
        "addr:housenumber": "3035a",
        "addr:street": "Hurontario Street",
        "massage": "sexual",
        "name": "Massage Centre",
        "shop": "massage"
      },
      "geometry": {
        "type": "Point",
        "coordinates": [
          -79.6170425,
          43.5813145
        ]
      },
      "id": "node/699643014"
    },
    {
      "type": "Feature",
      "properties": {
        "@id": "node/728154097",
        "name": "The Great Metropolitan Back Rub",
        "shop": "massage",
        "source": "knowledge"
      },
      "geometry": {
        "type": "Point",
        "coordinates": [
          -93.1871653,
          44.9183488
        ]
      },
      "id": "node/728154097"
    },
    {
      "type": "Feature",
      "properties": {
        "@id": "node/734109822",
        "name": "Mie Massage",
        "shop": "massage"
      },
      "geometry": {
        "type": "Point",
        "coordinates": [
          -77.0609101,
          38.9050337
        ]
      },
      "id": "node/734109822"
    },
    {
      "type": "Feature",
      "properties": {
        "@id": "node/763014685",
        "addr:city": "Lake Forest",
        "addr:housenumber": "23401",
        "addr:postcode": "92630",
        "addr:state": "CA",
        "addr:street": "El Toro Road",
        "addr:unit": "100",
        "description": "\"SWEDISH, HOT STONE, DEEP TISSUE, REFLEXOLOGY\"",
        "level": "0",
        "name": "Melody Massage & Waxing",
        "opening_hours": "Mo-Su 09:30-21:00",
        "payment:american_express": "yes",
        "payment:cash": "yes",
        "payment:diners_club": "yes",
        "payment:discover_card": "yes",
        "payment:jcb": "yes",
        "payment:mastercard": "yes",
        "payment:visa": "yes",
        "phone": "+1 949-707-5178",
        "shop": "massage",
        "smoking": "no",
        "source": "yahoo_imagery;survey;image",
        "source_ref": "AM909_DSCV0277",
        "wheelchair": "yes"
      },
      "geometry": {
        "type": "Point",
        "coordinates": [
          -117.6973957,
          33.6236532
        ]
      },
      "id": "node/763014685"
    },
    {
      "type": "Feature",
      "properties": {
        "@id": "node/764524152",
        "name": "Adagio Massage & SPA",
        "shop": "massage"
      },
      "geometry": {
        "type": "Point",
        "coordinates": [
          -73.6004584,
          45.5441729
        ]
      },
      "id": "node/764524152"
    },
    {
      "type": "Feature",
      "properties": {
        "@id": "node/766987352",
        "addr:city": "Manhattan",
        "addr:housenumber": "3218",
        "addr:postcode": "66503",
        "addr:street": "Kimball Avenue",
        "name": "Health Joy Massage",
        "opening_hours": "Mo-Sa 10:00-20:00; Su 13:00-18:00",
        "shop": "massage"
      },
      "geometry": {
        "type": "Point",
        "coordinates": [
          -96.6182577,
          39.2052387
        ]
      },
      "id": "node/766987352"
    },
    {
      "type": "Feature",
      "properties": {
        "@id": "node/814386265",
        "addr:city": "Brampton",
        "addr:housenumber": "256",
        "addr:street": "Main Street North",
        "amenity": "spa",
        "name": "Velvet Salon & Spa",
        "phone": "+1-905-463-1991",
        "source": "CanVec 6.0 - NRCan"
      },
      "geometry": {
        "type": "Point",
        "coordinates": [
          -79.7666982,
          43.6911325
        ]
      },
      "id": "node/814386265"
    },
    {
      "type": "Feature",
      "properties": {
        "@id": "node/875013060",
        "name": "Crescent Creek",
        "shop": "massage",
        "source": "yahoo_wms;survey"
      },
      "geometry": {
        "type": "Point",
        "coordinates": [
          -120.6598993,
          47.5949282
        ]
      },
      "id": "node/875013060"
    },
    {
      "type": "Feature",
      "properties": {
        "@id": "node/889783090",
        "amenity": "spa",
        "name": "Oriental Falls Spa"
      },
      "geometry": {
        "type": "Point",
        "coordinates": [
          -79.333258,
          43.8115979
        ]
      },
      "id": "node/889783090"
    },
    {
      "type": "Feature",
      "properties": {
        "@id": "node/895799935",
        "note": "formerly dry cleaners",
        "shop": "massage",
        "source": "survey"
      },
      "geometry": {
        "type": "Point",
        "coordinates": [
          -82.4119012,
          28.0833158
        ]
      },
      "id": "node/895799935"
    },
    {
      "type": "Feature",
      "properties": {
        "@id": "node/937028459",
        "addr:city": "Blacksburg",
        "addr:country": "US",
        "addr:housenumber": "2001",
        "addr:state": "VA",
        "addr:street": "South Main Street",
        "addr:unit": "Suite 106",
        "name": "Blue Ridge School Massage",
        "shop": "massage"
      },
      "geometry": {
        "type": "Point",
        "coordinates": [
          -80.3983415,
          37.2051834
        ]
      },
      "id": "node/937028459"
    },
    {
      "type": "Feature",
      "properties": {
        "@id": "node/937036088",
        "addr:city": "Blacksburg",
        "addr:country": "US",
        "addr:housenumber": "1995",
        "addr:state": "VA",
        "addr:street": "South Main Street",
        "addr:unit": "Suite 802 A",
        "name": "Gin I Myson, Cmt",
        "shop": "massage"
      },
      "geometry": {
        "type": "Point",
        "coordinates": [
          -80.3983699,
          37.2060093
        ]
      },
      "id": "node/937036088"
    },
    {
      "type": "Feature",
      "properties": {
        "@id": "node/937120956",
        "addr:city": "Blacksburg",
        "addr:country": "US",
        "addr:housenumber": "1995",
        "addr:state": "VA",
        "addr:street": "South Main Street",
        "addr:unit": "Suite 802 B",
        "name": "Massage And Body Works",
        "shop": "massage"
      },
      "geometry": {
        "type": "Point",
        "coordinates": [
          -80.3983494,
          37.2060081
        ]
      },
      "id": "node/937120956"
    },
    {
      "type": "Feature",
      "properties": {
        "@id": "node/937146448",
        "addr:city": "Blacksburg",
        "addr:country": "US",
        "addr:housenumber": "2001",
        "addr:state": "VA",
        "addr:street": "South Main Street",
        "addr:unit": "Suite 3 Unit A",
        "name": "European Foot Spa",
        "shop": "massage"
      },
      "geometry": {
        "type": "Point",
        "coordinates": [
          -80.3984577,
          37.205338
        ]
      },
      "id": "node/937146448"
    },
    {
      "type": "Feature",
      "properties": {
        "@id": "node/957141873",
        "addr:housenumber": "1495",
        "addr:street": "West 6th Avenue",
        "amenity": "spa",
        "name": "Miraj Hammam Spa",
        "opening_hours": "Tu-We 11:00-19:00, Th 12:00-15:00, Fr 12:00-20:00, Sa 10:00-18:00 \"women\"; Th 16:00-20:00, Su 14:00-18:00 \"men\""
      },
      "geometry": {
        "type": "Point",
        "coordinates": [
          -123.1380996,
          49.2663063
        ]
      },
      "id": "node/957141873"
    },
    {
      "type": "Feature",
      "properties": {
        "@id": "node/961847328",
        "addr:housenumber": "309",
        "addr:street": "6th Street",
        "name": "Queens Park Massage Therapy",
        "phone": "+1-604-524-2844",
        "shop": "massage"
      },
      "geometry": {
        "type": "Point",
        "coordinates": [
          -122.9150413,
          49.2091503
        ]
      },
      "id": "node/961847328"
    },
    {
      "type": "Feature",
      "properties": {
        "@id": "node/966212160",
        "name": "Melrose Therapeutic & Wholistic Center",
        "shop": "massage"
      },
      "geometry": {
        "type": "Point",
        "coordinates": [
          -71.0664011,
          42.4534897
        ]
      },
      "id": "node/966212160"
    },
    {
      "type": "Feature",
      "properties": {
        "@id": "node/967192018",
        "name": "Mirage Spa",
        "shop": "massage"
      },
      "geometry": {
        "type": "Point",
        "coordinates": [
          -88.540599,
          37.732968
        ]
      },
      "id": "node/967192018"
    },
    {
      "type": "Feature",
      "properties": {
        "@id": "node/973846782",
        "name": "Massage Cabanas",
        "shop": "massage"
      },
      "geometry": {
        "type": "Point",
        "coordinates": [
          -77.5426461,
          26.0944051
        ]
      },
      "id": "node/973846782"
    },
    {
      "type": "Feature",
      "properties": {
        "@id": "node/992352381",
        "addr:city": "Toronto",
        "addr:housenumber": "28",
        "addr:street": "Penrose Road",
        "name": "The Massage Therapy Boutique",
        "shop": "massage"
      },
      "geometry": {
        "type": "Point",
        "coordinates": [
          -79.3886882,
          43.7033077
        ]
      },
      "id": "node/992352381"
    },
    {
      "type": "Feature",
      "properties": {
        "@id": "node/1017874343",
        "brand": "Massage Heights",
        "brand:wikidata": "Q64573956",
        "check_date": "2024-05-26",
        "name": "Massage Heights",
        "shop": "massage"
      },
      "geometry": {
        "type": "Point",
        "coordinates": [
          -121.279436,
          38.7898025
        ]
      },
      "id": "node/1017874343"
    },
    {
      "type": "Feature",
      "properties": {
        "@id": "node/1020805813",
        "name": "Bella Luna",
        "shop": "massage"
      },
      "geometry": {
        "type": "Point",
        "coordinates": [
          -71.351797,
          42.5972872
        ]
      },
      "id": "node/1020805813"
    },
    {
      "type": "Feature",
      "properties": {
        "@id": "node/1071323923",
        "addr:city": "Union City",
        "addr:housenumber": "1658",
        "addr:postcode": "94587",
        "addr:state": "CA",
        "addr:street": "Decoto Road",
        "name": "The Pearl Massage",
        "shop": "massage"
      },
      "geometry": {
        "type": "Point",
        "coordinates": [
          -122.01913,
          37.5892993
        ]
      },
      "id": "node/1071323923"
    },
    {
      "type": "Feature",
      "properties": {
        "@id": "node/1100791399",
        "brand": "Massage Envy",
        "brand:wikidata": "Q22922899",
        "name": "Massage Envy",
        "shop": "massage"
      },
      "geometry": {
        "type": "Point",
        "coordinates": [
          -121.288162,
          38.7894736
        ]
      },
      "id": "node/1100791399"
    },
    {
      "type": "Feature",
      "properties": {
        "@id": "node/1105698526",
        "name": "Mindful Massage",
        "shop": "massage"
      },
      "geometry": {
        "type": "Point",
        "coordinates": [
          -91.4173962,
          41.9223057
        ]
      },
      "id": "node/1105698526"
    },
    {
      "type": "Feature",
      "properties": {
        "@id": "node/1127605360",
        "addr:city": "Siloam Springs",
        "addr:country": "US",
        "addr:full": "1175 Highway 412 West",
        "addr:housenumber": "1175",
        "addr:postcode": "72761",
        "addr:state": "AR",
        "addr:street": "Highway 412 West",
        "entrance": "shop",
        "name": "Ocean Massage",
        "shop": "massage"
      },
      "geometry": {
        "type": "Point",
        "coordinates": [
          -94.5534991,
          36.1759576
        ]
      },
      "id": "node/1127605360"
    },
    {
      "type": "Feature",
      "properties": {
        "@id": "node/1132991891",
        "name": "Sutherland-Chan Massage Therapy",
        "shop": "massage"
      },
      "geometry": {
        "type": "Point",
        "coordinates": [
          -79.38784,
          43.645674
        ]
      },
      "id": "node/1132991891"
    },
    {
      "type": "Feature",
      "properties": {
        "@id": "node/1137127334",
        "addr:city": "Tomball",
        "addr:state": "TX",
        "name": "Massage Spa",
        "shop": "massage"
      },
      "geometry": {
        "type": "Point",
        "coordinates": [
          -95.5534709,
          30.1231609
        ]
      },
      "id": "node/1137127334"
    },
    {
      "type": "Feature",
      "properties": {
        "@id": "node/1153889724",
        "brand": "Massage Envy",
        "brand:wikidata": "Q10327170",
        "name": "Massage Envy",
        "shop": "massage"
      },
      "geometry": {
        "type": "Point",
        "coordinates": [
          -117.7711443,
          33.7231685
        ]
      },
      "id": "node/1153889724"
    },
    {
      "type": "Feature",
      "properties": {
        "@id": "node/1158374289",
        "name": "The Knot Shop",
        "shop": "massage"
      },
      "geometry": {
        "type": "Point",
        "coordinates": [
          -117.7272553,
          33.5758785
        ]
      },
      "id": "node/1158374289"
    },
    {
      "type": "Feature",
      "properties": {
        "@id": "node/1203387276",
        "name": "The Massage Institute",
        "shop": "massage"
      },
      "geometry": {
        "type": "Point",
        "coordinates": [
          -75.4437241,
          40.0471193
        ]
      },
      "id": "node/1203387276"
    },
    {
      "type": "Feature",
      "properties": {
        "@id": "node/1203413631",
        "name": "Healing Hand Massage",
        "shop": "massage"
      },
      "geometry": {
        "type": "Point",
        "coordinates": [
          -75.4408703,
          40.0477085
        ]
      },
      "id": "node/1203413631"
    },
    {
      "type": "Feature",
      "properties": {
        "@id": "node/1211004413",
        "addr:city": "Belmont",
        "addr:postcode": "94002",
        "addr:state": "CA",
        "name": "Tranquil Massage",
        "shop": "massage"
      },
      "geometry": {
        "type": "Point",
        "coordinates": [
          -122.275749,
          37.5215452
        ]
      },
      "id": "node/1211004413"
    },
    {
      "type": "Feature",
      "properties": {
        "@id": "node/1213563173",
        "name": "Suzuki Shiatsu",
        "phone": "+1-647-348-0056",
        "shop": "massage"
      },
      "geometry": {
        "type": "Point",
        "coordinates": [
          -79.386829,
          43.665636
        ]
      },
      "id": "node/1213563173"
    },
    {
      "type": "Feature",
      "properties": {
        "@id": "node/1240464193",
        "addr:city": "Toronto",
        "addr:housenumber": "4",
        "addr:street": "Avenue Road",
        "name": "Stillwater A Park Hyatt Spa",
        "shop": "massage"
      },
      "geometry": {
        "type": "Point",
        "coordinates": [
          -79.394547,
          43.668963
        ]
      },
      "id": "node/1240464193"
    },
    {
      "type": "Feature",
      "properties": {
        "@id": "node/1240464584",
        "addr:housenumber": "66",
        "addr:postcode": "M5R 3N8",
        "addr:street": "Avenue Road",
        "name": "Novo Spa",
        "phone": "+14169269303",
        "shop": "massage",
        "website": "https://www.novospa.ca/"
      },
      "geometry": {
        "type": "Point",
        "coordinates": [
          -79.395591,
          43.67137
        ]
      },
      "id": "node/1240464584"
    },
    {
      "type": "Feature",
      "properties": {
        "@id": "node/1240464832",
        "description": "What is this",
        "name": "DLK On Avenue",
        "shop": "massage"
      },
      "geometry": {
        "type": "Point",
        "coordinates": [
          -79.39624,
          43.673093
        ]
      },
      "id": "node/1240464832"
    },
    {
      "type": "Feature",
      "properties": {
        "@id": "node/1240465149",
        "description": "Pet spa",
        "name": "Pampered Paws",
        "shop": "massage"
      },
      "geometry": {
        "type": "Point",
        "coordinates": [
          -79.395186,
          43.674727
        ]
      },
      "id": "node/1240465149"
    },
    {
      "type": "Feature",
      "properties": {
        "@id": "node/1243260479",
        "addr:housenumber": "17214",
        "addr:state": "WA",
        "addr:street": "Redmond Way",
        "brand": "Massage Envy",
        "brand:wikidata": "Q22922899",
        "name": "Massage Envy",
        "shop": "massage"
      },
      "geometry": {
        "type": "Point",
        "coordinates": [
          -122.1099598,
          47.6726638
        ]
      },
      "id": "node/1243260479"
    },
    {
      "type": "Feature",
      "properties": {
        "@id": "node/1244924836",
        "name": "N&N Elegant Nails & Spa",
        "shop": "massage"
      },
      "geometry": {
        "type": "Point",
        "coordinates": [
          -79.4922737,
          43.7740522
        ]
      },
      "id": "node/1244924836"
    },
    {
      "type": "Feature",
      "properties": {
        "@id": "node/1257587364",
        "brand": "Massage Envy",
        "brand:wikidata": "Q22922899",
        "name": "Massage Envy",
        "shop": "massage",
        "wheelchair": "yes"
      },
      "geometry": {
        "type": "Point",
        "coordinates": [
          -97.7332496,
          30.3897321
        ]
      },
      "id": "node/1257587364"
    },
    {
      "type": "Feature",
      "properties": {
        "@id": "node/1262651424",
        "check_date:opening_hours": "2024-04-20",
        "level": "3",
        "name": "Absolute Spa At YVR",
        "opening_hours:signed": "no",
        "payment:credit_cards": "yes",
        "payment:debit_cards": "yes",
        "shop": "massage",
        "wheelchair": "yes"
      },
      "geometry": {
        "type": "Point",
        "coordinates": [
          -123.175732,
          49.1972088
        ]
      },
      "id": "node/1262651424"
    },
    {
      "type": "Feature",
      "properties": {
        "@id": "node/1279875667",
        "addr:city": "Toronto",
        "addr:housenumber": "11",
        "addr:street": "King Street East",
        "name": "Beauty Buzz Studio",
        "phone": "+1-416-363-6861",
        "shop": "massage"
      },
      "geometry": {
        "type": "Point",
        "coordinates": [
          -79.3767903,
          43.6492881
        ]
      },
      "id": "node/1279875667"
    },
    {
      "type": "Feature",
      "properties": {
        "@id": "node/1286400964",
        "addr:city": "Toronto",
        "addr:housenumber": "250",
        "addr:postcode": "M4S 2L9",
        "addr:street": "Davisville Avenue",
        "name": "CCMH Toronto Student Intern Clinic",
        "phone": "+1-416-736-4576",
        "shop": "massage",
        "url": "http://www.ccmhclinic.com/",
        "website": "https://www.collegeofmassage.com/"
      },
      "geometry": {
        "type": "Point",
        "coordinates": [
          -79.3862624,
          43.7006303
        ]
      },
      "id": "node/1286400964"
    },
    {
      "type": "Feature",
      "properties": {
        "@id": "node/1292310739",
        "addr:housenumber": "1423",
        "addr:street": "North 45th Street",
        "check_date": "2024-10-20",
        "name": "Moon Massage",
        "shop": "massage"
      },
      "geometry": {
        "type": "Point",
        "coordinates": [
          -122.3396129,
          47.6612108
        ]
      },
      "id": "node/1292310739"
    },
    {
      "type": "Feature",
      "properties": {
        "@id": "node/1296832600",
        "addr:suite": "150",
        "name": "Hawaii Massage",
        "shop": "massage"
      },
      "geometry": {
        "type": "Point",
        "coordinates": [
          -121.2868904,
          38.7855577
        ]
      },
      "id": "node/1296832600"
    },
    {
      "type": "Feature",
      "properties": {
        "@id": "node/1305391500",
        "addr:city": "Boulder",
        "addr:housenumber": "2321",
        "addr:postcode": "80301",
        "addr:street": "30th Street",
        "description": "Therapeutic massage",
        "name": "Elements",
        "opening_hours": "Mo-Su 09:00-21:00",
        "shop": "massage",
        "website": "https://elementsmassage.com/boulder/"
      },
      "geometry": {
        "type": "Point",
        "coordinates": [
          -105.2551164,
          40.0243983
        ]
      },
      "id": "node/1305391500"
    },
    {
      "type": "Feature",
      "properties": {
        "@id": "node/1309639843",
        "name": "Soft Touch Spa",
        "shop": "massage"
      },
      "geometry": {
        "type": "Point",
        "coordinates": [
          -79.62571,
          43.587369
        ]
      },
      "id": "node/1309639843"
    },
    {
      "type": "Feature",
      "properties": {
        "@id": "node/1313078207",
        "addr:city": "Mississauga",
        "addr:housenumber": "1152-1154",
        "addr:street": "Birchview Drive",
        "name": "The Ivy Garden Spa",
        "phone": "+1-905-278-8770",
        "shop": "massage"
      },
      "geometry": {
        "type": "Point",
        "coordinates": [
          -79.614067,
          43.5318583
        ]
      },
      "id": "node/1313078207"
    },
    {
      "type": "Feature",
      "properties": {
        "@id": "node/1314089743",
        "addr:city": "Toronto",
        "addr:housenumber": "72",
        "addr:street": "Gerrard Street West",
        "amenity": "spa",
        "name": "Spring Green"
      },
      "geometry": {
        "type": "Point",
        "coordinates": [
          -79.385282,
          43.658601
        ]
      },
      "id": "node/1314089743"
    },
    {
      "type": "Feature",
      "properties": {
        "@id": "node/1317942638",
        "addr:city": "Fredericksburg",
        "addr:country": "US",
        "addr:housenumber": "9959",
        "addr:postcode": "22407",
        "addr:state": "VA",
        "addr:street": "Patriot Highway",
        "name": "H & W Spa",
        "shop": "massage"
      },
      "geometry": {
        "type": "Point",
        "coordinates": [
          -77.5043489,
          38.224941
        ]
      },
      "id": "node/1317942638"
    },
    {
      "type": "Feature",
      "properties": {
        "@id": "node/1351962288",
        "name": "Happy Feet Reflexology",
        "shop": "massage"
      },
      "geometry": {
        "type": "Point",
        "coordinates": [
          -77.1383739,
          39.0745565
        ]
      },
      "id": "node/1351962288"
    },
    {
      "type": "Feature",
      "properties": {
        "@id": "node/1355479696",
        "addr:city": "Redwood City",
        "addr:housenumber": "326",
        "addr:postcode": "94063",
        "addr:state": "CA",
        "addr:street": "Walnut Street",
        "brand": "Massage Envy",
        "brand:wikidata": "Q22922899",
        "name": "Massage Envy",
        "opening_hours": "10:00-20:00",
        "opening_hours:url": "https://locations.massageenvy.com/california/redwood-city/326-walnut-st.html",
        "phone": "+1 650 569 3689",
        "shop": "massage",
        "website": "https://locations.massageenvy.com/california/redwood-city/326-walnut-st.html"
      },
      "geometry": {
        "type": "Point",
        "coordinates": [
          -122.2246542,
          37.4911419
        ]
      },
      "id": "node/1355479696"
    },
    {
      "type": "Feature",
      "properties": {
        "@id": "node/1376416871",
        "addr:city": "Denver",
        "addr:housenumber": "1518",
        "addr:postcode": "80202",
        "addr:state": "CO",
        "addr:street": "Wazee Street",
        "addr:unit": "A",
        "name": "Elixir Mind Body Massage",
        "shop": "massage"
      },
      "geometry": {
        "type": "Point",
        "coordinates": [
          -105.0006794,
          39.7505369
        ]
      },
      "id": "node/1376416871"
    },
    {
      "type": "Feature",
      "properties": {
        "@id": "node/1381187230",
        "addr:city": "Denver",
        "addr:housenumber": "1799",
        "addr:postcode": "80202",
        "addr:state": "CO",
        "addr:street": "15th Street",
        "brand": "Massage Envy",
        "brand:wikidata": "Q22922899",
        "name": "Massage Envy",
        "opening_hours": "Mo-Sa 10:00-18:00",
        "shop": "massage",
        "wheelchair": "yes"
      },
      "geometry": {
        "type": "Point",
        "coordinates": [
          -105.0026956,
          39.7516244
        ]
      },
      "id": "node/1381187230"
    },
    {
      "type": "Feature",
      "properties": {
        "@id": "node/1407409841",
        "brand": "Hand & Stone Massage and Facial Spa",
        "brand:wikidata": "Q55613342",
        "name": "Hand & Stone Massage and Facial Spa",
        "shop": "massage"
      },
      "geometry": {
        "type": "Point",
        "coordinates": [
          -105.075794,
          40.5241312
        ]
      },
      "id": "node/1407409841"
    },
    {
      "type": "Feature",
      "properties": {
        "@id": "node/1424528253",
        "name": "Stress Relief Clinic",
        "shop": "massage"
      },
      "geometry": {
        "type": "Point",
        "coordinates": [
          -82.6384,
          27.8221088
        ]
      },
      "id": "node/1424528253"
    },
    {
      "type": "Feature",
      "properties": {
        "@id": "node/1424864558",
        "amenity": "spa",
        "name": "Urb Organic Spa",
        "note": "upstairs",
        "opening_hours": "Tu-Fr 11:00-19:00; Sa 10:00-18:00",
        "phone": "+1-647-344-7451",
        "url": "www.urborganicspa.com"
      },
      "geometry": {
        "type": "Point",
        "coordinates": [
          -79.389216,
          43.706489
        ]
      },
      "id": "node/1424864558"
    },
    {
      "type": "Feature",
      "properties": {
        "@id": "node/1429584699",
        "name": "Sunny Massage & Spa",
        "shop": "massage"
      },
      "geometry": {
        "type": "Point",
        "coordinates": [
          -117.1837046,
          32.8214143
        ]
      },
      "id": "node/1429584699"
    },
    {
      "type": "Feature",
      "properties": {
        "@id": "node/1458417769",
        "name": "The Village Spa",
        "shop": "massage",
        "source": "Bing"
      },
      "geometry": {
        "type": "Point",
        "coordinates": [
          -116.9133962,
          34.2396514
        ]
      },
      "id": "node/1458417769"
    },
    {
      "type": "Feature",
      "properties": {
        "@id": "node/1459161531",
        "brand": "Massage Envy",
        "brand:wikidata": "Q22922899",
        "name": "Massage Envy",
        "opening_hours": "Mo-Fr 09:00-21:00; Sa,Su 09:00-19:00",
        "shop": "massage"
      },
      "geometry": {
        "type": "Point",
        "coordinates": [
          -117.2042477,
          32.8320005
        ]
      },
      "id": "node/1459161531"
    },
    {
      "type": "Feature",
      "properties": {
        "@id": "node/1459218351",
        "name": "Underground Massage",
        "shop": "massage"
      },
      "geometry": {
        "type": "Point",
        "coordinates": [
          -72.6313052,
          42.318765
        ]
      },
      "id": "node/1459218351"
    },
    {
      "type": "Feature",
      "properties": {
        "@id": "node/1459300014",
        "amenity": "spa",
        "name": "Relax Spa"
      },
      "geometry": {
        "type": "Point",
        "coordinates": [
          -79.298867,
          43.80455
        ]
      },
      "id": "node/1459300014"
    },
    {
      "type": "Feature",
      "properties": {
        "@id": "node/1485265774",
        "addr:housenumber": "704",
        "name": "Amethyst",
        "shop": "massage"
      },
      "geometry": {
        "type": "Point",
        "coordinates": [
          -121.1011219,
          35.5678101
        ]
      },
      "id": "node/1485265774"
    },
    {
      "type": "Feature",
      "properties": {
        "@id": "node/1491131032",
        "name": "TT Massage Therapy",
        "shop": "massage"
      },
      "geometry": {
        "type": "Point",
        "coordinates": [
          -124.1707614,
          40.7994667
        ]
      },
      "id": "node/1491131032"
    },
    {
      "type": "Feature",
      "properties": {
        "@id": "node/1504073661",
        "addr:housenumber": "846",
        "addr:street": "Oak Grove Avenue",
        "name": "Massage for Therapy",
        "shop": "massage"
      },
      "geometry": {
        "type": "Point",
        "coordinates": [
          -122.187097,
          37.4513675
        ]
      },
      "id": "node/1504073661"
    },
    {
      "type": "Feature",
      "properties": {
        "@id": "node/1515108281",
        "addr:city": "Roseville",
        "addr:housenumber": "1850",
        "addr:postcode": "95661",
        "addr:street": "Douglas Boulevard",
        "addr:unit": "410",
        "check_date": "2024-05-24",
        "name": "Royal Spa & Massage",
        "shop": "massage"
      },
      "geometry": {
        "type": "Point",
        "coordinates": [
          -121.2580466,
          38.7434648
        ]
      },
      "id": "node/1515108281"
    },
    {
      "type": "Feature",
      "properties": {
        "@id": "node/1516084465",
        "name": "Lotus Spa",
        "shop": "massage"
      },
      "geometry": {
        "type": "Point",
        "coordinates": [
          -80.3293434,
          43.4083376
        ]
      },
      "id": "node/1516084465"
    },
    {
      "type": "Feature",
      "properties": {
        "@id": "node/1549566795",
        "brand": "Massage Envy",
        "brand:wikidata": "Q22922899",
        "name": "Massage Envy",
        "shop": "massage"
      },
      "geometry": {
        "type": "Point",
        "coordinates": [
          -81.4754734,
          28.4477984
        ]
      },
      "id": "node/1549566795"
    },
    {
      "type": "Feature",
      "properties": {
        "@id": "node/1616159707",
        "name": "Dynamic Approach Massage Therapy",
        "shop": "massage",
        "website": "http://www.dynamic-approach.com/"
      },
      "geometry": {
        "type": "Point",
        "coordinates": [
          -80.5155038,
          43.4345256
        ]
      },
      "id": "node/1616159707"
    },
    {
      "type": "Feature",
      "properties": {
        "@id": "node/1642708004",
        "brand": "Massage Envy",
        "brand:wikidata": "Q22922899",
        "name": "Massage Envy",
        "shop": "massage"
      },
      "geometry": {
        "type": "Point",
        "coordinates": [
          -111.976347,
          33.6107058
        ]
      },
      "id": "node/1642708004"
    },
    {
      "type": "Feature",
      "properties": {
        "@id": "node/1656860644",
        "amenity": "spa",
        "name": "Sunstone: The Spa at Agua Caliente",
        "source": "image;local_knowledge"
      },
      "geometry": {
        "type": "Point",
        "coordinates": [
          -116.4094836,
          33.8139709
        ]
      },
      "id": "node/1656860644"
    },
    {
      "type": "Feature",
      "properties": {
        "@id": "node/1663778953",
        "brand": "Massage Envy",
        "brand:wikidata": "Q22922899",
        "name": "Massage Envy",
        "shop": "massage"
      },
      "geometry": {
        "type": "Point",
        "coordinates": [
          -83.3597147,
          42.5457684
        ]
      },
      "id": "node/1663778953"
    },
    {
      "type": "Feature",
      "properties": {
        "@id": "node/1677614664",
        "addr:city": "Toronto",
        "addr:housenumber": "98",
        "addr:street": "Church Street",
        "amenity": "spa",
        "name": "poa studio"
      },
      "geometry": {
        "type": "Point",
        "coordinates": [
          -79.375254,
          43.651335
        ]
      },
      "id": "node/1677614664"
    },
    {
      "type": "Feature",
      "properties": {
        "@id": "node/1700520905",
        "addr:city": "Redwood City",
        "addr:housenumber": "507",
        "addr:postcode": "94061",
        "addr:street": "Woodside Road",
        "name": "Muscle Group Therapy",
        "phone": "(650) 556-1571",
        "shop": "massage"
      },
      "geometry": {
        "type": "Point",
        "coordinates": [
          -122.2231692,
          37.4701265
        ]
      },
      "id": "node/1700520905"
    },
    {
      "type": "Feature",
      "properties": {
        "@id": "node/1703921147",
        "addr:city": "Redwood City",
        "addr:housenumber": "615",
        "addr:postcode": "94061",
        "addr:street": "Woodside Road",
        "name": "A+ Day Spa",
        "phone": "(650) 299-9332",
        "shop": "massage"
      },
      "geometry": {
        "type": "Point",
        "coordinates": [
          -122.2233252,
          37.4687286
        ]
      },
      "id": "node/1703921147"
    },
    {
      "type": "Feature",
      "properties": {
        "@id": "node/1709500182",
        "addr:city": "Redwood City",
        "addr:housenumber": "2529",
        "addr:postcode": "94061",
        "addr:street": "El Camino Real",
        "name": "Pandora Spa",
        "phone": "(650) 368-3828",
        "redwood_city_ca:addr_id": "20262",
        "shop": "massage",
        "source": "City of Redwood City, CA 1013"
      },
      "geometry": {
        "type": "Point",
        "coordinates": [
          -122.2168591,
          37.4740443
        ]
      },
      "id": "node/1709500182"
    },
    {
      "type": "Feature",
      "properties": {
        "@id": "node/1714830099",
        "brand": "Massage Addict",
        "brand:wikidata": "Q120790290",
        "name": "Massage Addict",
        "shop": "massage",
        "website": "https://www.massageaddict.ca/"
      },
      "geometry": {
        "type": "Point",
        "coordinates": [
          -79.7869802,
          43.5950901
        ]
      },
      "id": "node/1714830099"
    },
    {
      "type": "Feature",
      "properties": {
        "@id": "node/1717371392",
        "name": "Lucky Foot Massage",
        "shop": "massage"
      },
      "geometry": {
        "type": "Point",
        "coordinates": [
          -117.1540005,
          32.8282828
        ]
      },
      "id": "node/1717371392"
    },
    {
      "type": "Feature",
      "properties": {
        "@id": "node/1722611329",
        "amenity": "spa",
        "name": "Footworks Relaxology"
      },
      "geometry": {
        "type": "Point",
        "coordinates": [
          -123.1718054,
          49.2639931
        ]
      },
      "id": "node/1722611329"
    },
    {
      "type": "Feature",
      "properties": {
        "@id": "node/1731145296",
        "addr:housenumber": "1012",
        "name": "Two Chic Salon and Spa",
        "phone": "+1 570 763 5291",
        "shop": "massage"
      },
      "geometry": {
        "type": "Point",
        "coordinates": [
          -75.8787917,
          41.2790954
        ]
      },
      "id": "node/1731145296"
    },
    {
      "type": "Feature",
      "properties": {
        "@id": "node/1736831335",
        "addr:city": "Saint Petersburg",
        "addr:country": "US",
        "addr:housenumber": "5020",
        "addr:postcode": "33703",
        "addr:state": "FL",
        "addr:street": "4th Street North",
        "atm": "no",
        "brand": "Massage Envy",
        "brand:wikidata": "Q22922899",
        "internet_access": "no",
        "name": "Massage Envy",
        "phone": "+1-727-490-3000",
        "shop": "massage",
        "website": "Massageenvy.com"
      },
      "geometry": {
        "type": "Point",
        "coordinates": [
          -82.63915,
          27.818187
        ]
      },
      "id": "node/1736831335"
    },
    {
      "type": "Feature",
      "properties": {
        "@id": "node/1739788045",
        "amenity": "spa",
        "created_by": "iLOE 1.9",
        "name": "Healthwinds Spa"
      },
      "geometry": {
        "type": "Point",
        "coordinates": [
          -79.389095,
          43.70435
        ]
      },
      "id": "node/1739788045"
    },
    {
      "type": "Feature",
      "properties": {
        "@id": "node/1741918047",
        "name": "So Relax",
        "shop": "massage",
        "source": "Bing"
      },
      "geometry": {
        "type": "Point",
        "coordinates": [
          -117.1472873,
          32.7691294
        ]
      },
      "id": "node/1741918047"
    },
    {
      "type": "Feature",
      "properties": {
        "@id": "node/1756352975",
        "name": "David W Pusey - Therapeutic Massage",
        "shop": "massage"
      },
      "geometry": {
        "type": "Point",
        "coordinates": [
          -75.5364588,
          39.8295349
        ]
      },
      "id": "node/1756352975"
    },
    {
      "type": "Feature",
      "properties": {
        "@id": "node/1758992077",
        "addr:city": "Redwood City",
        "addr:housenumber": "2769",
        "addr:postcode": "94061",
        "addr:street": "El Camino Real",
        "name": "Siesta Massage",
        "phone": "(650) 780-9040",
        "shop": "massage"
      },
      "geometry": {
        "type": "Point",
        "coordinates": [
          -122.2141191,
          37.4711127
        ]
      },
      "id": "node/1758992077"
    },
    {
      "type": "Feature",
      "properties": {
        "@id": "node/1766839882",
        "addr:city": "Saint Petersburg",
        "addr:country": "US",
        "addr:postcode": "33703",
        "addr:state": "FL",
        "addr:street": "4th Street North",
        "brand": "Hand & Stone Massage and Facial Spa",
        "brand:wikidata": "Q55613342",
        "name": "Hand & Stone Massage and Facial Spa",
        "shop": "massage"
      },
      "geometry": {
        "type": "Point",
        "coordinates": [
          -82.6391575,
          27.8197213
        ]
      },
      "id": "node/1766839882"
    },
    {
      "type": "Feature",
      "properties": {
        "@id": "node/1776741843",
        "addr:city": "Seattle",
        "addr:housenumber": "6500",
        "addr:postcode": "98117",
        "addr:street": "8th Avenue Northwest",
        "check_date": "2024-09-07",
        "name": "M Spa",
        "shop": "massage",
        "source": "knowledge;King County GIS;data.seattle.gov"
      },
      "geometry": {
        "type": "Point",
        "coordinates": [
          -122.3657479,
          47.6761599
        ]
      },
      "id": "node/1776741843"
    },
    {
      "type": "Feature",
      "properties": {
        "@id": "node/1776778357",
        "addr:housenumber": "3940-2",
        "name": "Foot Massage",
        "shop": "massage"
      },
      "geometry": {
        "type": "Point",
        "coordinates": [
          -120.6421348,
          35.2493637
        ]
      },
      "id": "node/1776778357"
    },
    {
      "type": "Feature",
      "properties": {
        "@id": "node/1777779996",
        "addr:city": "Sunnyvale",
        "addr:housenumber": "663",
        "addr:postcode": "94087",
        "addr:state": "CA",
        "addr:street": "South Bernardo Avenue",
        "check_date:opening_hours": "2020-10-21",
        "name": "Royal Massage & Spa Inc.",
        "opening_hours": "Mo-Sa 11:00-22:00; Su 12:00-22:00",
        "payment:american_express": "yes",
        "payment:cash": "yes",
        "payment:discover_card": "yes",
        "payment:mastercard": "yes",
        "payment:visa": "yes",
        "phone": "+1-408-738-8818",
        "shop": "massage",
        "website": "http://royalmassage.net"
      },
      "geometry": {
        "type": "Point",
        "coordinates": [
          -122.05778,
          37.3720488
        ]
      },
      "id": "node/1777779996"
    },
    {
      "type": "Feature",
      "properties": {
        "@id": "node/1816223681",
        "addr:housenumber": "9002",
        "addr:street": "Yonge Street",
        "amenity": "spa",
        "name": "Natural Health Centre",
        "phone": "+1-905-597-8066"
      },
      "geometry": {
        "type": "Point",
        "coordinates": [
          -79.432052,
          43.846932
        ]
      },
      "id": "node/1816223681"
    },
    {
      "type": "Feature",
      "properties": {
        "@id": "node/1832713752",
        "addr:city": "Oldsmar",
        "addr:country": "US",
        "addr:postcode": "34677",
        "addr:state": "FL",
        "addr:street": "Tampa Rd",
        "name": "Eastern Massage",
        "shop": "massage"
      },
      "geometry": {
        "type": "Point",
        "coordinates": [
          -82.6550797,
          28.0353185
        ]
      },
      "id": "node/1832713752"
    },
    {
      "type": "Feature",
      "properties": {
        "@id": "node/1833335318",
        "addr:city": "Pittsburgh",
        "addr:country": "US",
        "addr:housenumber": "5701",
        "addr:postcode": "15206",
        "addr:state": "PA",
        "addr:street": "Centre Avenue",
        "addr:unit": "LL2",
        "name": "Centre Ave. Massage & Spa",
        "opening_hours": "Mo-Sa 09:00-18:00; Tu-Th 09:00-20:00",
        "phone": "+1-412-661-7724",
        "shop": "massage",
        "source": "survey",
        "website": "http://www.centreavespa.com/"
      },
      "geometry": {
        "type": "Point",
        "coordinates": [
          -79.9336342,
          40.457565
        ]
      },
      "id": "node/1833335318"
    },
    {
      "type": "Feature",
      "properties": {
        "@id": "node/1852987095",
        "amenity": "spa",
        "name": "Gree Spa"
      },
      "geometry": {
        "type": "Point",
        "coordinates": [
          -79.450135,
          43.9270506
        ]
      },
      "id": "node/1852987095"
    },
    {
      "type": "Feature",
      "properties": {
        "@id": "node/1854601148",
        "name": "Nature's Essence Massage Therapy Clinic",
        "shop": "massage"
      },
      "geometry": {
        "type": "Point",
        "coordinates": [
          -79.458479,
          44.0543
        ]
      },
      "id": "node/1854601148"
    },
    {
      "type": "Feature",
      "properties": {
        "@id": "node/1855119998",
        "addr:city": "Evanston",
        "addr:housenumber": "501",
        "addr:postcode": "60202",
        "addr:street": "Main Street",
        "addr:street:name": "Main",
        "addr:street:type": "Street",
        "amenity": "spa",
        "name": "Agora Spa"
      },
      "geometry": {
        "type": "Point",
        "coordinates": [
          -87.6779578,
          42.0340787
        ]
      },
      "id": "node/1855119998"
    },
    {
      "type": "Feature",
      "properties": {
        "@id": "node/1857324195",
        "addr:city": "Madison",
        "addr:housenumber": "237",
        "addr:postcode": "53704",
        "addr:state": "WI",
        "addr:street": "North Street",
        "designation": "Health and Wellness",
        "dispensing": "no",
        "name": "Best Massage",
        "shop": "massage"
      },
      "geometry": {
        "type": "Point",
        "coordinates": [
          -89.3500784,
          43.1030217
        ]
      },
      "id": "node/1857324195"
    },
    {
      "type": "Feature",
      "properties": {
        "@id": "node/1859536605",
        "amenity": "spa",
        "name": "Max Bodyworks"
      },
      "geometry": {
        "type": "Point",
        "coordinates": [
          -96.6151531,
          39.1882763
        ]
      },
      "id": "node/1859536605"
    },
    {
      "type": "Feature",
      "properties": {
        "@id": "node/1863557197",
        "brand": "Massage Envy",
        "brand:wikidata": "Q22922899",
        "name": "Massage Envy",
        "shop": "massage"
      },
      "geometry": {
        "type": "Point",
        "coordinates": [
          -87.5275465,
          33.1923904
        ]
      },
      "id": "node/1863557197"
    },
    {
      "type": "Feature",
      "properties": {
        "@id": "node/1868025038",
        "amenity": "spa",
        "level": "1",
        "name": "Foot Happy Spa",
        "note": "entrance to 2nd floor",
        "phone": "+1-647-748-8828"
      },
      "geometry": {
        "type": "Point",
        "coordinates": [
          -79.403305,
          43.666912
        ]
      },
      "id": "node/1868025038"
    },
    {
      "type": "Feature",
      "properties": {
        "@id": "node/1870881486",
        "addr:unit": "305",
        "brand": "Massage Envy",
        "brand:wikidata": "Q22922899",
        "name": "Massage Envy",
        "opening_hours": "Mo-Fr 08:00-20:00; Sa 08:00-18:00; Su 10:00-18:00",
        "shop": "massage"
      },
      "geometry": {
        "type": "Point",
        "coordinates": [
          -113.5349487,
          37.1220952
        ]
      },
      "id": "node/1870881486"
    },
    {
      "type": "Feature",
      "properties": {
        "@id": "node/1909195749",
        "shop": "massage"
      },
      "geometry": {
        "type": "Point",
        "coordinates": [
          -122.0145037,
          36.9817511
        ]
      },
      "id": "node/1909195749"
    },
    {
      "type": "Feature",
      "properties": {
        "@id": "node/1916430810",
        "addr:housenumber": "17171",
        "addr:street": "Harbour Pointe Dr",
        "name": "The Spa at Sanibel Harbour Marriott",
        "operator": "Columbia Sussex Hospitality",
        "shop": "massage"
      },
      "geometry": {
        "type": "Point",
        "coordinates": [
          -82.009616,
          26.4909182
        ]
      },
      "id": "node/1916430810"
    },
    {
      "type": "Feature",
      "properties": {
        "@id": "node/1938599475",
        "amenity": "spa",
        "name": "Glo de Vie Med Spa"
      },
      "geometry": {
        "type": "Point",
        "coordinates": [
          -78.6445205,
          35.8397797
        ]
      },
      "id": "node/1938599475"
    },
    {
      "type": "Feature",
      "properties": {
        "@id": "node/1938671617",
        "amenity": "spa",
        "name": "Planet Beach Tanning Spa"
      },
      "geometry": {
        "type": "Point",
        "coordinates": [
          -78.6438127,
          35.8405886
        ]
      },
      "id": "node/1938671617"
    },
    {
      "type": "Feature",
      "properties": {
        "@id": "node/1945935634",
        "name": "A Simple Touch Massage Therapy",
        "shop": "massage"
      },
      "geometry": {
        "type": "Point",
        "coordinates": [
          -91.5255273,
          42.2031192
        ]
      },
      "id": "node/1945935634"
    },
    {
      "type": "Feature",
      "properties": {
        "@id": "node/1952950095",
        "name": "Relaxation Station",
        "phone": "+1 781 3217733",
        "shop": "massage",
        "source": "survey"
      },
      "geometry": {
        "type": "Point",
        "coordinates": [
          -71.073441,
          42.4299114
        ]
      },
      "id": "node/1952950095"
    },
    {
      "type": "Feature",
      "properties": {
        "@id": "node/1955939811",
        "amenity": "spa",
        "name": "Studio 359 Salon & Day Spa",
        "shop": "hairdresser"
      },
      "geometry": {
        "type": "Point",
        "coordinates": [
          -113.5807913,
          37.1102239
        ]
      },
      "id": "node/1955939811"
    },
    {
      "type": "Feature",
      "properties": {
        "@id": "node/1974037801",
        "addr:door": "A230",
        "name": "Synergy Massage & Personal Fitness",
        "shop": "massage"
      },
      "geometry": {
        "type": "Point",
        "coordinates": [
          -113.5873032,
          37.0829221
        ]
      },
      "id": "node/1974037801"
    },
    {
      "type": "Feature",
      "properties": {
        "@id": "node/1987578185",
        "check_date": "2024-07-16",
        "name": "Elements Massage",
        "opening_hours": "Mo-Su 09:00-21:00",
        "shop": "massage",
        "wheelchair": "yes"
      },
      "geometry": {
        "type": "Point",
        "coordinates": [
          -122.1994434,
          47.620779
        ]
      },
      "id": "node/1987578185"
    },
    {
      "type": "Feature",
      "properties": {
        "@id": "node/1995435020",
        "addr:city": "Etobicoke",
        "addr:housenumber": "852",
        "addr:street": "The Queensway",
        "name": "Elite Retreat",
        "shop": "massage",
        "website": "https://www.eliteretreat.ca"
      },
      "geometry": {
        "type": "Point",
        "coordinates": [
          -79.5096511,
          43.6249714
        ]
      },
      "id": "node/1995435020"
    },
    {
      "type": "Feature",
      "properties": {
        "@id": "node/2006864228",
        "addr:city": "Burnsville",
        "addr:housenumber": "14600",
        "addr:postcode": "55337",
        "addr:state": "MN",
        "addr:street": "10th Avenue South",
        "addr:unit": "200",
        "name": "King's Spa",
        "shop": "massage"
      },
      "geometry": {
        "type": "Point",
        "coordinates": [
          -93.2617085,
          44.7389983
        ]
      },
      "id": "node/2006864228"
    },
    {
      "type": "Feature",
      "properties": {
        "@id": "node/2020422482",
        "addr:city": "Portland",
        "addr:housenumber": "1413",
        "addr:postcode": "97214",
        "addr:state": "OR",
        "addr:street": "Southeast Hawthorne Boulevard",
        "name": "TeaScape",
        "shop": "massage",
        "website": "https://www.teascapepdx.com/"
      },
      "geometry": {
        "type": "Point",
        "coordinates": [
          -122.6514719,
          45.5123482
        ]
      },
      "id": "node/2020422482"
    },
    {
      "type": "Feature",
      "properties": {
        "@id": "node/2031067327",
        "name": "Gulf Beaches Therapeutic Massage",
        "shop": "massage"
      },
      "geometry": {
        "type": "Point",
        "coordinates": [
          -82.7510752,
          27.7408354
        ]
      },
      "id": "node/2031067327"
    },
    {
      "type": "Feature",
      "properties": {
        "@id": "node/2043149233",
        "addr:city": "Saint Petersburg",
        "addr:street": "54th Avenue North",
        "name": "Massage Therapy",
        "shop": "massage"
      },
      "geometry": {
        "type": "Point",
        "coordinates": [
          -82.6542,
          27.820901
        ]
      },
      "id": "node/2043149233"
    },
    {
      "type": "Feature",
      "properties": {
        "@id": "node/2077157831",
        "addr:city": "Seattle",
        "addr:country": "US",
        "addr:housenumber": "619",
        "addr:postcode": "98102",
        "addr:state": "WA",
        "addr:street": "Broadway East",
        "name": "Dreamscape Massage",
        "shop": "massage"
      },
      "geometry": {
        "type": "Point",
        "coordinates": [
          -122.3211269,
          47.6248707
        ]
      },
      "id": "node/2077157831"
    },
    {
      "type": "Feature",
      "properties": {
        "@id": "node/2092464971",
        "addr:city": "Addison",
        "addr:housenumber": "5100",
        "addr:state": "TX",
        "addr:street": "Belt Line Road",
        "addr:unit": "752",
        "brand": "Hand & Stone Massage and Facial Spa",
        "brand:wikidata": "Q55613342",
        "name": "Hand & Stone Massage and Facial Spa",
        "shop": "massage"
      },
      "geometry": {
        "type": "Point",
        "coordinates": [
          -96.8194352,
          32.9521073
        ]
      },
      "id": "node/2092464971"
    },
    {
      "type": "Feature",
      "properties": {
        "@id": "node/2118282208",
        "addr:city": "Cedar Rapids",
        "addr:housenumber": "1501",
        "addr:postcode": "52402",
        "addr:state": "IA",
        "addr:street": "51st Street Northeast",
        "addr:unit": "3",
        "name": "Salveo",
        "opening_hours": "Mo-Sa 10:00-05:30",
        "phone": "+1-319-720-5009",
        "shop": "massage",
        "source": "Bing",
        "website": "https://www.salveocr.com/"
      },
      "geometry": {
        "type": "Point",
        "coordinates": [
          -91.6604452,
          42.0290462
        ]
      },
      "id": "node/2118282208"
    },
    {
      "type": "Feature",
      "properties": {
        "@id": "node/2120442370",
        "addr:city": "West Sacramento",
        "addr:housenumber": "2921",
        "addr:postcode": "95691",
        "addr:state": "CA",
        "addr:street": "West Capitol Avenue",
        "name": "Harbor Massage",
        "shop": "massage"
      },
      "geometry": {
        "type": "Point",
        "coordinates": [
          -121.549271,
          38.5784622
        ]
      },
      "id": "node/2120442370"
    },
    {
      "type": "Feature",
      "properties": {
        "@id": "node/2122898854",
        "contact:email": "breckbliss@gmail.com",
        "contact:phone": "+1 970 406 0014",
        "contact:website": "http://breckenridgeblissmassage.com/",
        "name": "Bliss Healing Massage",
        "shop": "massage"
      },
      "geometry": {
        "type": "Point",
        "coordinates": [
          -106.0457152,
          39.4783105
        ]
      },
      "id": "node/2122898854"
    },
    {
      "type": "Feature",
      "properties": {
        "@id": "node/2124640004",
        "addr:housenumber": "655",
        "addr:street": "Town Center Drive",
        "brand": "Massage Envy",
        "brand:wikidata": "Q22922899",
        "name": "Massage Envy",
        "shop": "massage"
      },
      "geometry": {
        "type": "Point",
        "coordinates": [
          -119.178674,
          34.2404222
        ]
      },
      "id": "node/2124640004"
    },
    {
      "type": "Feature",
      "properties": {
        "@id": "node/2127072802",
        "addr:city": "Noblesville",
        "addr:housenumber": "14139",
        "addr:postcode": "46060",
        "addr:state": "IN",
        "addr:street": "Town Center Boulevard",
        "addr:unit": "750",
        "brand": "Massage Envy",
        "brand:wikidata": "Q10327170",
        "name": "Massage Envy",
        "shop": "massage"
      },
      "geometry": {
        "type": "Point",
        "coordinates": [
          -85.93259,
          39.9945629
        ]
      },
      "id": "node/2127072802"
    },
    {
      "type": "Feature",
      "properties": {
        "@id": "node/2136787835",
        "name": "Essentials Massage & Facials",
        "shop": "massage"
      },
      "geometry": {
        "type": "Point",
        "coordinates": [
          -82.512512,
          27.945116
        ]
      },
      "id": "node/2136787835"
    },
    {
      "type": "Feature",
      "properties": {
        "@id": "node/2138389680",
        "addr:city": "Seattle",
        "addr:housenumber": "1713",
        "addr:postcode": "98107",
        "addr:street": "Northwest Market Street",
        "check_date": "2024-12-01",
        "name": "Dream SPA",
        "shop": "massage",
        "source": "King County GIS"
      },
      "geometry": {
        "type": "Point",
        "coordinates": [
          -122.379533,
          47.6685159
        ]
      },
      "id": "node/2138389680"
    },
    {
      "type": "Feature",
      "properties": {
        "@id": "node/2138399520",
        "addr:city": "Seattle",
        "addr:housenumber": "2034",
        "addr:postcode": "98107",
        "addr:street": "Northwest Market Street",
        "check_date": "2024-06-24",
        "name": "GW Relax Station",
        "shop": "massage",
        "source": "King County GIS"
      },
      "geometry": {
        "type": "Point",
        "coordinates": [
          -122.3837358,
          47.6688545
        ]
      },
      "id": "node/2138399520"
    },
    {
      "type": "Feature",
      "properties": {
        "@id": "node/2140248568",
        "addr:city": "Mississauga",
        "addr:housenumber": "1846",
        "addr:postcode": "L5J 1J7",
        "addr:street": "Lakeshore Road West",
        "amenity": "reflexology",
        "name": "Natural Beauty Wellness Center",
        "opening_hours": "Mo-Sa 10:30-20:30",
        "phone": "+1-905-919-9799",
        "shop": "massage",
        "website": "https://www.naturalbeautywellness.com/"
      },
      "geometry": {
        "type": "Point",
        "coordinates": [
          -79.6249885,
          43.5149877
        ]
      },
      "id": "node/2140248568"
    },
    {
      "type": "Feature",
      "properties": {
        "@id": "node/2142181934",
        "addr:city": "Kirkland",
        "addr:housenumber": "6515",
        "addr:postcode": "98033",
        "addr:street": "132nd Avenue Northeast",
        "name": "Chiropractic & Massage",
        "shop": "massage"
      },
      "geometry": {
        "type": "Point",
        "coordinates": [
          -122.164879,
          47.6646914
        ]
      },
      "id": "node/2142181934"
    },
    {
      "type": "Feature",
      "properties": {
        "@id": "node/2152792904",
        "addr:city": "Etobicoke",
        "name": "Natural Health Rehab",
        "shop": "massage"
      },
      "geometry": {
        "type": "Point",
        "coordinates": [
          -79.5388744,
          43.5930592
        ]
      },
      "id": "node/2152792904"
    },
    {
      "type": "Feature",
      "properties": {
        "@id": "node/2153426059",
        "addr:city": "Etobicoke",
        "addr:housenumber": "340",
        "addr:street": "Brown's Line",
        "name": "Unique Touch Spa",
        "phone": "+1-647-631-9292",
        "shop": "massage"
      },
      "geometry": {
        "type": "Point",
        "coordinates": [
          -79.5447686,
          43.6000921
        ]
      },
      "id": "node/2153426059"
    },
    {
      "type": "Feature",
      "properties": {
        "@id": "node/2153426068",
        "addr:housenumber": "370",
        "addr:street": "Brown's Line",
        "name": "Secrets Massage Spa & Gentlemans Club",
        "shop": "massage"
      },
      "geometry": {
        "type": "Point",
        "coordinates": [
          -79.5448909,
          43.6003983
        ]
      },
      "id": "node/2153426068"
    },
    {
      "type": "Feature",
      "properties": {
        "@id": "node/2153426069",
        "addr:city": "Etobicoke",
        "addr:housenumber": "280",
        "addr:street": "Brown's Line",
        "name": "Josephine Spa",
        "shop": "massage",
        "website": "https://josephinespa.com/"
      },
      "geometry": {
        "type": "Point",
        "coordinates": [
          -79.5442487,
          43.5989531
        ]
      },
      "id": "node/2153426069"
    },
    {
      "type": "Feature",
      "properties": {
        "@id": "node/2157948557",
        "addr:city": "Mountain View",
        "addr:housenumber": "858",
        "addr:street": "Villa Street",
        "check_date": "2024-05-12",
        "name": "Happy Feet Foot Spa",
        "opening_hours": "10:00-22:00",
        "phone": "+1 650-969-7600",
        "shop": "massage",
        "wheelchair": "yes"
      },
      "geometry": {
        "type": "Point",
        "coordinates": [
          -122.0795956,
          37.3941837
        ]
      },
      "id": "node/2157948557"
    },
    {
      "type": "Feature",
      "properties": {
        "@id": "node/2158165788",
        "amenity": "spa",
        "name": "Lakeshore Heath Center",
        "phone": "+1-905-488-0977"
      },
      "geometry": {
        "type": "Point",
        "coordinates": [
          -79.5556248,
          43.5803861
        ]
      },
      "id": "node/2158165788"
    },
    {
      "type": "Feature",
      "properties": {
        "@id": "node/2158443558",
        "name": "A&A massage Therapy Inc",
        "phone": "+1-416-271-1752",
        "shop": "massage"
      },
      "geometry": {
        "type": "Point",
        "coordinates": [
          -79.5621076,
          43.5739893
        ]
      },
      "id": "node/2158443558"
    },
    {
      "type": "Feature",
      "properties": {
        "@id": "node/2158772363",
        "addr:city": "Seattle",
        "addr:housenumber": "705",
        "addr:postcode": "98102",
        "addr:state": "WA",
        "addr:street": "Broadway East",
        "name": "The Massage Sanctuary",
        "phone": "+1-206-322-5549",
        "shop": "massage",
        "source": "King County GIS",
        "website": "https://themassagesanctuary.com/"
      },
      "geometry": {
        "type": "Point",
        "coordinates": [
          -122.3214889,
          47.6252964
        ]
      },
      "id": "node/2158772363"
    },
    {
      "type": "Feature",
      "properties": {
        "@id": "node/2159618409",
        "addr:city": "Etobicoke",
        "addr:housenumber": "3051",
        "addr:postcode": "M8V 1K5",
        "addr:street": "Lake Shore Boulevard West",
        "name": "The Body Shaman",
        "phone": "+1-416-201-0606",
        "shop": "massage",
        "website": "https://thebodyshaman.ca/"
      },
      "geometry": {
        "type": "Point",
        "coordinates": [
          -79.5094419,
          43.5996663
        ]
      },
      "id": "node/2159618409"
    },
    {
      "type": "Feature",
      "properties": {
        "@id": "node/2161756165",
        "amenity": "spa",
        "name": "The Spa at Sagamo"
      },
      "geometry": {
        "type": "Point",
        "coordinates": [
          -79.3831834,
          44.9204052
        ]
      },
      "id": "node/2161756165"
    },
    {
      "type": "Feature",
      "properties": {
        "@id": "node/2216786626",
        "addr:city": "Mesa",
        "addr:housenumber": "1946",
        "addr:postcode": "85209",
        "addr:state": "AZ",
        "addr:street": "South Signal Butte Road",
        "addr:unit": "103",
        "brand": "Massage Envy",
        "brand:wikidata": "Q22922899",
        "name": "Massage Envy",
        "phone": "+1 480 986 3689",
        "shop": "massage",
        "website": "https://www.massageenvy.com/clinics/AZ/Superstition-Gateway.aspx"
      },
      "geometry": {
        "type": "Point",
        "coordinates": [
          -111.6027208,
          33.3802684
        ]
      },
      "id": "node/2216786626"
    },
    {
      "type": "Feature",
      "properties": {
        "@id": "node/2217251253",
        "addr:housenumber": "714",
        "addr:street": "Villa Street",
        "name": "Kellys Healing Massage",
        "old_name": "Serene Spa",
        "shop": "massage"
      },
      "geometry": {
        "type": "Point",
        "coordinates": [
          -122.077963,
          37.3935322
        ]
      },
      "id": "node/2217251253"
    },
    {
      "type": "Feature",
      "properties": {
        "@id": "node/2237823228",
        "name": "Massage Adict",
        "shop": "massage",
        "website": "https://www.massageaddict.ca/"
      },
      "geometry": {
        "type": "Point",
        "coordinates": [
          -79.5756716,
          43.5921722
        ]
      },
      "id": "node/2237823228"
    },
    {
      "type": "Feature",
      "properties": {
        "@id": "node/2240788289",
        "addr:suite": "116",
        "amenity": "spa",
        "contact:phone": "+1 919 238 5040",
        "contact:website": "http://www.nirvelli.com/",
        "name": "Nirvelli Day Spa"
      },
      "geometry": {
        "type": "Point",
        "coordinates": [
          -78.8481088,
          35.7870277
        ]
      },
      "id": "node/2240788289"
    },
    {
      "type": "Feature",
      "properties": {
        "@id": "node/2246316264",
        "name": "Humboldt Hand & Foot Therapy",
        "shop": "massage"
      },
      "geometry": {
        "type": "Point",
        "coordinates": [
          -124.1374263,
          40.7962209
        ]
      },
      "id": "node/2246316264"
    },
    {
      "type": "Feature",
      "properties": {
        "@id": "node/2259724785",
        "amenity": "spa",
        "name": "Jinsei Spa"
      },
      "geometry": {
        "type": "Point",
        "coordinates": [
          -121.315242,
          44.0618889
        ]
      },
      "id": "node/2259724785"
    },
    {
      "type": "Feature",
      "properties": {
        "@id": "node/2260972399",
        "note": "old entry was centre=massothrapie",
        "shop": "massage"
      },
      "geometry": {
        "type": "Point",
        "coordinates": [
          -72.5047439,
          46.8149268
        ]
      },
      "id": "node/2260972399"
    },
    {
      "type": "Feature",
      "properties": {
        "@id": "node/2266363339",
        "amenity": "spa",
        "name": "House of Dawn"
      },
      "geometry": {
        "type": "Point",
        "coordinates": [
          -80.4793045,
          43.4456396
        ]
      },
      "id": "node/2266363339"
    },
    {
      "type": "Feature",
      "properties": {
        "@id": "node/2267875545",
        "name": "Passion Day Spa",
        "shop": "massage"
      },
      "geometry": {
        "type": "Point",
        "coordinates": [
          -75.3549298,
          40.435542
        ]
      },
      "id": "node/2267875545"
    },
    {
      "type": "Feature",
      "properties": {
        "@id": "node/2275810686",
        "name": "Studio Lila",
        "phone": "+1-303-579-2972",
        "shop": "massage",
        "source": "survey"
      },
      "geometry": {
        "type": "Point",
        "coordinates": [
          -105.320861,
          39.6327913
        ]
      },
      "id": "node/2275810686"
    },
    {
      "type": "Feature",
      "properties": {
        "@id": "node/2276337235",
        "addr:unit": "3A",
        "name": "Sattva Massage",
        "shop": "massage",
        "source": "survey"
      },
      "geometry": {
        "type": "Point",
        "coordinates": [
          -105.3203562,
          39.6322295
        ]
      },
      "id": "node/2276337235"
    },
    {
      "type": "Feature",
      "properties": {
        "@id": "node/2276372466",
        "addr:city": "Evergreen",
        "addr:housenumber": "28186",
        "addr:postcode": "80439",
        "addr:state": "CO",
        "addr:street": "Bear Creek Road",
        "amenity": "spa",
        "name": "The Spa At Evergreen",
        "source": "survey"
      },
      "geometry": {
        "type": "Point",
        "coordinates": [
          -105.3194016,
          39.6324606
        ]
      },
      "id": "node/2276372466"
    },
    {
      "type": "Feature",
      "properties": {
        "@id": "node/2277885174",
        "shop": "massage",
        "source": "local_knowledge"
      },
      "geometry": {
        "type": "Point",
        "coordinates": [
          -84.381031,
          33.7819062
        ]
      },
      "id": "node/2277885174"
    },
    {
      "type": "Feature",
      "properties": {
        "@id": "node/2279247702",
        "addr:city": "Queen Creek",
        "addr:housenumber": "21582",
        "addr:postcode": "85142",
        "addr:state": "AZ",
        "addr:street": "South Ellsworth Loop Road",
        "addr:suite": "110",
        "brand": "Massage Envy",
        "brand:wikidata": "Q22922899",
        "contact:phone": "+1 480 888-2800",
        "contact:website": "http://www.massageenvy.com/clinics/AZ/Queen-Creek-.aspx",
        "name": "Massage Envy",
        "opening_hours": "Mo-Fr 08:00-22:00; Sa 08:00-20:00; Su 09:00-19:00",
        "phone": "+14808882800",
        "shop": "massage",
        "website": "https://locations.massageenvy.com/arizona/queen-creek/21582-s-ellsworth-loop.html?utm_source=GMB&utm_medium=useractions&utm_campaign=website"
      },
      "geometry": {
        "type": "Point",
        "coordinates": [
          -111.638281,
          33.2523919
        ]
      },
      "id": "node/2279247702"
    },
    {
      "type": "Feature",
      "properties": {
        "@id": "node/2285164194",
        "alt_name": "Swthz",
        "amenity": "spa",
        "level": "0",
        "name": "Sweathouz",
        "opening_hours": "Mo-Sa 10:00-21:00; Su 12:00-18:00",
        "phone": "+18019393416"
      },
      "geometry": {
        "type": "Point",
        "coordinates": [
          -111.903726,
          40.982739
        ]
      },
      "id": "node/2285164194"
    },
    {
      "type": "Feature",
      "properties": {
        "@id": "node/2292874950",
        "addr:city": "Arlington",
        "addr:housenumber": "3323",
        "addr:postcode": "98223",
        "addr:state": "WA",
        "addr:street": "169th Place Northeast",
        "fixme": "position",
        "name": "Senses Spa",
        "shop": "massage"
      },
      "geometry": {
        "type": "Point",
        "coordinates": [
          -122.1851195,
          48.1504931
        ]
      },
      "id": "node/2292874950"
    },
    {
      "type": "Feature",
      "properties": {
        "@id": "node/2300084883",
        "addr:city": "Toronto",
        "addr:housename": "Steamworks",
        "addr:housenumber": "540",
        "addr:postcode": "M4Y 2E1",
        "addr:street": "Church Street",
        "fee": "yes",
        "leisure": "sauna",
        "name": "Steamworks Baths Toronto",
        "opening_hours": "24/7",
        "phone": "+1-416-925-1571",
        "shop": "massage",
        "toilets:wheelchair": "no",
        "website": "http://steamworksonline.com/toronto/toronto.html",
        "wheelchair": "no"
      },
      "geometry": {
        "type": "Point",
        "coordinates": [
          -79.381026,
          43.6650836
        ]
      },
      "id": "node/2300084883"
    },
    {
      "type": "Feature",
      "properties": {
        "@id": "node/2310497782",
        "addr:unit": "1168",
        "level": "0",
        "name": "Stretch Zone",
        "shop": "massage",
        "website": "https://www.stretchzone.com/locations/boulder/"
      },
      "geometry": {
        "type": "Point",
        "coordinates": [
          -105.2564009,
          40.0193105
        ]
      },
      "id": "node/2310497782"
    },
    {
      "type": "Feature",
      "properties": {
        "@id": "node/2312090757",
        "addr:city": "Seattle",
        "addr:housenumber": "217",
        "addr:postcode": "98109",
        "addr:state": "WA",
        "addr:street": "9th Avenue North",
        "amenity": "spa",
        "name": "Banya 5",
        "opening_hours": "Tu 16:00-23:00; We-Su 10:00-23:00",
        "phone": "+1-206-262-1234",
        "website": "https://www.banya5.com/"
      },
      "geometry": {
        "type": "Point",
        "coordinates": [
          -122.3399451,
          47.6203402
        ]
      },
      "id": "node/2312090757"
    },
    {
      "type": "Feature",
      "properties": {
        "@id": "node/2314980840",
        "addr:city": "Seattle",
        "addr:housenumber": "7358",
        "addr:postcode": "98117",
        "addr:state": "WA",
        "addr:street": "15th Avenue Northwest",
        "addr:unit": "101",
        "massage": "therapeutic",
        "name": "Smiling Art",
        "shop": "massage",
        "source": "King County GIS;data.seattle.gov"
      },
      "geometry": {
        "type": "Point",
        "coordinates": [
          -122.3765517,
          47.6831113
        ]
      },
      "id": "node/2314980840"
    },
    {
      "type": "Feature",
      "properties": {
        "@id": "node/2323794570",
        "addr:city": "Seattle",
        "addr:country": "US",
        "addr:housenumber": "824",
        "addr:postcode": "98105",
        "addr:state": "WA",
        "addr:street": "Northeast 45th Street",
        "check_date": "2024-03-26",
        "contact:phone": "+1-206-632-1648",
        "contact:yelp": "https://www.yelp.com/biz/my-foot-massage-seattle",
        "name": "My Foot Massage",
        "shop": "massage"
      },
      "geometry": {
        "type": "Point",
        "coordinates": [
          -122.3191014,
          47.6615392
        ]
      },
      "id": "node/2323794570"
    },
    {
      "type": "Feature",
      "properties": {
        "@id": "node/2323856041",
        "addr:city": "Seattle",
        "addr:housenumber": "5518",
        "addr:postcode": "98105",
        "addr:street": "Roosevelt Way Northeast",
        "name": "Emerald City Massage",
        "shop": "massage",
        "source": "King County GIS;data.seattle.gov"
      },
      "geometry": {
        "type": "Point",
        "coordinates": [
          -122.3171907,
          47.6691539
        ]
      },
      "id": "node/2323856041"
    },
    {
      "type": "Feature",
      "properties": {
        "@id": "node/2326584487",
        "name": "Brazilia",
        "opening_hours": "Mo-Sa 10:00-20:00; Su 11:00-19:00",
        "payment:credit_cards": "yes",
        "payment:debit_cards": "yes",
        "shop": "massage",
        "source": "Bing"
      },
      "geometry": {
        "type": "Point",
        "coordinates": [
          -117.2097551,
          32.8706968
        ]
      },
      "id": "node/2326584487"
    },
    {
      "type": "Feature",
      "properties": {
        "@id": "node/2327612292",
        "addr:city": "Seattle",
        "addr:housenumber": "2714",
        "addr:postcode": "98121",
        "addr:state": "WA",
        "addr:street": "Elliott Avenue",
        "check_date": "2023-09-30",
        "name": "Deep Tissue Sports Massage",
        "opening_hours": "\"By Appointment\"",
        "phone": "+1-206-849-2103",
        "shop": "massage",
        "source": "King County GIS;data.seattle.gov"
      },
      "geometry": {
        "type": "Point",
        "coordinates": [
          -122.3527966,
          47.6149067
        ]
      },
      "id": "node/2327612292"
    },
    {
      "type": "Feature",
      "properties": {
        "@id": "node/2328508389",
        "addr:city": "Seattle",
        "addr:housenumber": "10021",
        "addr:postcode": "98177",
        "addr:street": "Holman Road Northwest",
        "branch": "North Seattle",
        "brand": "Elements Massage",
        "brand:wikidata": "Q113642393",
        "check_date": "2024-07-02",
        "name": "Elements Massage",
        "phone": "+1-206-632-8300",
        "shop": "massage",
        "source": "King County GIS;data.seattle.gov",
        "website": "https://elementsmassage.com/north-seattle"
      },
      "geometry": {
        "type": "Point",
        "coordinates": [
          -122.362639,
          47.7021835
        ]
      },
      "id": "node/2328508389"
    },
    {
      "type": "Feature",
      "properties": {
        "@id": "node/2328648791",
        "addr:city": "Seattle",
        "addr:housenumber": "10420",
        "addr:postcode": "98133",
        "addr:street": "Holman Road North",
        "check_date": "2024-07-02",
        "name": "Tea Family Head Spa",
        "phone": "+1-206-789-4222",
        "shop": "massage",
        "source": "King County GIS;data.seattle.gov"
      },
      "geometry": {
        "type": "Point",
        "coordinates": [
          -122.355727,
          47.7044198
        ]
      },
      "id": "node/2328648791"
    },
    {
      "type": "Feature",
      "properties": {
        "@id": "node/2328649933",
        "addr:city": "Seattle",
        "addr:housenumber": "7903",
        "addr:postcode": "98103",
        "addr:street": "Aurora Avenue North",
        "check_date": "2023-11-19",
        "name": "The One Massage",
        "opening_hours": "09:00-21:00",
        "phone": "+1-206-484-9215",
        "shop": "massage",
        "source": "King County GIS;data.seattle.gov"
      },
      "geometry": {
        "type": "Point",
        "coordinates": [
          -122.344743,
          47.6864564
        ]
      },
      "id": "node/2328649933"
    },
    {
      "type": "Feature",
      "properties": {
        "@id": "node/2329078170",
        "addr:city": "Seattle",
        "addr:housenumber": "2809",
        "addr:postcode": "98112",
        "addr:street": "East Madison Street",
        "amenity": "spa",
        "check_date": "2024-05-27",
        "name": "Mildred+Gertrude",
        "source": "King County GIS;data.seattle.gov"
      },
      "geometry": {
        "type": "Point",
        "coordinates": [
          -122.2958292,
          47.6235744
        ]
      },
      "id": "node/2329078170"
    },
    {
      "type": "Feature",
      "properties": {
        "@id": "node/2332453488",
        "addr:city": "Seattle",
        "addr:housenumber": "610",
        "addr:postcode": "98119",
        "addr:street": "West Crockett Street",
        "amenity": "spa",
        "check_date": "2024-04-18",
        "name": "Iunn",
        "shop": "beauty",
        "source": "King County GIS;data.seattle.gov",
        "website": "https://www.idunnsalonandspa.com"
      },
      "geometry": {
        "type": "Point",
        "coordinates": [
          -122.3655418,
          47.6378879
        ]
      },
      "id": "node/2332453488"
    },
    {
      "type": "Feature",
      "properties": {
        "@id": "node/2340569776",
        "addr:city": "San Jose",
        "addr:housenumber": "920",
        "addr:postcode": "95129",
        "addr:street": "Saratoga Avenue",
        "addr:suite": "107",
        "name": "Silicon Valley Massage Therapy Group",
        "phone": "408-260-2256",
        "shop": "massage",
        "website": "http://www.svmassagetherapy.com/"
      },
      "geometry": {
        "type": "Point",
        "coordinates": [
          -121.9770263,
          37.3098212
        ]
      },
      "id": "node/2340569776"
    },
    {
      "type": "Feature",
      "properties": {
        "@id": "node/2346730708",
        "name": "Maple Village Spa",
        "shop": "massage"
      },
      "geometry": {
        "type": "Point",
        "coordinates": [
          -122.3009015,
          47.6681526
        ]
      },
      "id": "node/2346730708"
    },
    {
      "type": "Feature",
      "properties": {
        "@id": "node/2356268583",
        "addr:city": "Houston",
        "addr:housenumber": "190",
        "addr:place": "Meyerland Plaza",
        "addr:state": "TX",
        "brand": "Massage Envy",
        "brand:wikidata": "Q22922899",
        "name": "Massage Envy",
        "shop": "massage"
      },
      "geometry": {
        "type": "Point",
        "coordinates": [
          -95.4640443,
          29.6857281
        ]
      },
      "id": "node/2356268583"
    },
    {
      "type": "Feature",
      "properties": {
        "@id": "node/2361072401",
        "addr:city": "Chicago",
        "addr:housenumber": "1513",
        "addr:postcode": "60614",
        "addr:state": "IL",
        "addr:street": "West Fullerton Avenue",
        "name": "Foot Smile Spa",
        "shop": "massage"
      },
      "geometry": {
        "type": "Point",
        "coordinates": [
          -87.66639,
          41.9250475
        ]
      },
      "id": "node/2361072401"
    },
    {
      "type": "Feature",
      "properties": {
        "@id": "node/2363319578",
        "addr:city": "Addison",
        "addr:housenumber": "15506",
        "addr:postcode": "75001",
        "addr:state": "TX",
        "addr:street": "Quorum Drive",
        "email": "info@tranquility-thai-spa.com",
        "name": "Tranquility Thai Spa",
        "phone": "+1 214 613 2332",
        "shop": "massage",
        "website": "https://www.tranquility-thai-spa.com/"
      },
      "geometry": {
        "type": "Point",
        "coordinates": [
          -96.8258239,
          32.9605174
        ]
      },
      "id": "node/2363319578"
    },
    {
      "type": "Feature",
      "properties": {
        "@id": "node/2367594001",
        "addr:city": "Bothell",
        "addr:housenumber": "10037",
        "addr:postcode": "98011",
        "addr:street": "Main Street",
        "name": "Relaxing Station",
        "phone": "+1-206-605-8779",
        "shop": "massage",
        "source": "King County GIS;data.seattle.gov"
      },
      "geometry": {
        "type": "Point",
        "coordinates": [
          -122.2055924,
          47.7599782
        ]
      },
      "id": "node/2367594001"
    },
    {
      "type": "Feature",
      "properties": {
        "@id": "node/2367594025",
        "addr:city": "Bothell",
        "addr:housenumber": "10117",
        "addr:postcode": "98011",
        "addr:street": "Main Street",
        "name": "Harmony Massage",
        "opening_hours": "Mo-Fr 10:00-20:00; Sa,Su 10:00-17:00",
        "shop": "massage",
        "source": "King County GIS;data.seattle.gov",
        "website": "https://harmonymassagebothell.com/"
      },
      "geometry": {
        "type": "Point",
        "coordinates": [
          -122.2046552,
          47.7600078
        ]
      },
      "id": "node/2367594025"
    },
    {
      "type": "Feature",
      "properties": {
        "@id": "node/2367881111",
        "addr:housenumber": "10116",
        "addr:street": "Main Street",
        "addr:unit": "103",
        "name": "Seattle Massage Therapy",
        "phone": "+1-206-470-0792",
        "shop": "massage",
        "website": "https://www.seattlesportsmassagetherapy.com"
      },
      "geometry": {
        "type": "Point",
        "coordinates": [
          -122.204795,
          47.76033
        ]
      },
      "id": "node/2367881111"
    },
    {
      "type": "Feature",
      "properties": {
        "@id": "node/2374041615",
        "addr:city": "Seattle",
        "addr:housenumber": "1220",
        "addr:postcode": "98144",
        "addr:state": "WA",
        "addr:street": "South Jackson Street",
        "addr:unit": "A",
        "name": "Seattle Body Massage",
        "shop": "massage",
        "source": "King County GIS;data.seattle.gov"
      },
      "geometry": {
        "type": "Point",
        "coordinates": [
          -122.3163161,
          47.5993588
        ]
      },
      "id": "node/2374041615"
    },
    {
      "type": "Feature",
      "properties": {
        "@id": "node/2375703594",
        "addr:street": "Main Street",
        "name": "Therateutic Massage",
        "phone": "+1 978-618-9548",
        "shop": "massage"
      },
      "geometry": {
        "type": "Point",
        "coordinates": [
          -71.5743025,
          42.666516
        ]
      },
      "id": "node/2375703594"
    },
    {
      "type": "Feature",
      "properties": {
        "@id": "node/2376665892",
        "amenity": "spa",
        "name": "Spa & Etc.",
        "source": "Bing",
        "website": "http://www.spaandetc.net/"
      },
      "geometry": {
        "type": "Point",
        "coordinates": [
          -117.1659815,
          32.8319041
        ]
      },
      "id": "node/2376665892"
    },
    {
      "type": "Feature",
      "properties": {
        "@id": "node/2376666346",
        "level": "0",
        "shop": "massage",
        "source": "Bing"
      },
      "geometry": {
        "type": "Point",
        "coordinates": [
          -117.1654051,
          32.8315939
        ]
      },
      "id": "node/2376666346"
    },
    {
      "type": "Feature",
      "properties": {
        "@id": "node/2380572838",
        "addr:city": "Fairfield",
        "addr:street": "Black Rock Turnpike",
        "brand": "Massage Envy",
        "brand:wikidata": "Q22922899",
        "name": "Massage Envy",
        "shop": "massage"
      },
      "geometry": {
        "type": "Point",
        "coordinates": [
          -73.2547465,
          41.1823333
        ]
      },
      "id": "node/2380572838"
    },
    {
      "type": "Feature",
      "properties": {
        "@id": "node/2380572856",
        "addr:city": "Fairfield",
        "addr:street": "Black Rock Turnpike",
        "name": "elements massage",
        "opening_hours": "Mo-Sa 09:00-21:00; Su 10:00-19:15",
        "phone": "+1 203 9232303",
        "shop": "massage"
      },
      "geometry": {
        "type": "Point",
        "coordinates": [
          -73.2526594,
          41.1814666
        ]
      },
      "id": "node/2380572856"
    },
    {
      "type": "Feature",
      "properties": {
        "@id": "node/2391820170",
        "name": "imed center",
        "phone": "+1 203 3337788",
        "shop": "massage"
      },
      "geometry": {
        "type": "Point",
        "coordinates": [
          -73.233145,
          41.1766041
        ]
      },
      "id": "node/2391820170"
    },
    {
      "type": "Feature",
      "properties": {
        "@id": "node/2393422586",
        "addr:city": "Saint Petersburg",
        "addr:housenumber": "6400",
        "addr:postcode": "33702",
        "addr:state": "FL",
        "addr:street": "4th Street North",
        "internet_access": "no",
        "name": "Essentials Massage & Facials",
        "phone": "+1-727-528-9000",
        "shop": "massage",
        "website": "https://essentialslockwood.mysalononline.com/"
      },
      "geometry": {
        "type": "Point",
        "coordinates": [
          -82.639001,
          27.831245
        ]
      },
      "id": "node/2393422586"
    },
    {
      "type": "Feature",
      "properties": {
        "@id": "node/2393474148",
        "addr:housename": "Old Keene Mill Shopping Center",
        "addr:housenumber": "8430",
        "addr:postcode": "22152",
        "addr:state": "VA",
        "addr:street": "Old Keene Mill Road",
        "addr:unit": "A",
        "brand": "Massage Envy",
        "brand:wikidata": "Q22922899",
        "name": "Massage Envy",
        "shop": "massage"
      },
      "geometry": {
        "type": "Point",
        "coordinates": [
          -77.2365042,
          38.7796344
        ]
      },
      "id": "node/2393474148"
    },
    {
      "type": "Feature",
      "properties": {
        "@id": "node/2396712696",
        "addr:city": "Seattle",
        "addr:housenumber": "4518",
        "addr:postcode": "98126",
        "addr:state": "WA",
        "addr:street": "Fauntleroy Way Southwest",
        "name": "Safe Haven Massage",
        "shop": "massage",
        "source": "King County GIS;data.seattle.gov"
      },
      "geometry": {
        "type": "Point",
        "coordinates": [
          -122.3795175,
          47.5623478
        ]
      },
      "id": "node/2396712696"
    },
    {
      "type": "Feature",
      "properties": {
        "@id": "node/2400748905",
        "addr:housenumber": "329",
        "addr:street": "March Road",
        "atm": "no",
        "name": "Ability Studio",
        "phone": "+1-613-592-7722",
        "shop": "massage",
        "website": "http://www.abilitystudio.ca",
        "wheelchair": "limited"
      },
      "geometry": {
        "type": "Point",
        "coordinates": [
          -75.9077068,
          45.334894
        ]
      },
      "id": "node/2400748905"
    },
    {
      "type": "Feature",
      "properties": {
        "@id": "node/2401037022",
        "entrance": "yes",
        "name": "Blue Waves Foot Spa",
        "shop": "massage"
      },
      "geometry": {
        "type": "Point",
        "coordinates": [
          -73.228742,
          41.173153
        ]
      },
      "id": "node/2401037022"
    },
    {
      "type": "Feature",
      "properties": {
        "@id": "node/2407257138",
        "addr:city": "Palo Alto",
        "addr:housenumber": "3666",
        "addr:street": "El Camino Real",
        "name": "Nancy Bee",
        "shop": "massage"
      },
      "geometry": {
        "type": "Point",
        "coordinates": [
          -122.1328721,
          37.4180149
        ]
      },
      "id": "node/2407257138"
    },
    {
      "type": "Feature",
      "properties": {
        "@id": "node/2407556640",
        "addr:city": "Lynden",
        "addr:housenumber": "1103",
        "addr:postcode": "98264",
        "addr:street": "East Grover Street",
        "atm": "no",
        "name": "Heartfelt Massage",
        "phone": "+1-360-318-9000",
        "shop": "massage",
        "source": "local knowledge"
      },
      "geometry": {
        "type": "Point",
        "coordinates": [
          -122.43536,
          48.949429
        ]
      },
      "id": "node/2407556640"
    },
    {
      "type": "Feature",
      "properties": {
        "@id": "node/2411563925",
        "amenity": "spa",
        "fixme": "colon hydrotherapy = detox; facial = natural; far Infrared sauna = detox; lymph drainage = detox; massage = relaxation; therapeutic bath = detox",
        "name": "Spa at Groton Wellness"
      },
      "geometry": {
        "type": "Point",
        "coordinates": [
          -71.5865133,
          42.6196884
        ]
      },
      "id": "node/2411563925"
    },
    {
      "type": "Feature",
      "properties": {
        "@id": "node/2411563927",
        "name": "Groton Therapeutic Massage",
        "shop": "massage"
      },
      "geometry": {
        "type": "Point",
        "coordinates": [
          -71.5855704,
          42.6193246
        ]
      },
      "id": "node/2411563927"
    },
    {
      "type": "Feature",
      "properties": {
        "@id": "node/2415634743",
        "amenity": "spa",
        "name": "Blue Haven Spa",
        "website": "http://www.bluehavenspa.com"
      },
      "geometry": {
        "type": "Point",
        "coordinates": [
          -122.3397891,
          47.63753
        ]
      },
      "id": "node/2415634743"
    },
    {
      "type": "Feature",
      "properties": {
        "@id": "node/2415634744",
        "name": "Sunny Massage",
        "shop": "massage",
        "website": "http://asiansunnymassage.com"
      },
      "geometry": {
        "type": "Point",
        "coordinates": [
          -122.3398506,
          47.6372115
        ]
      },
      "id": "node/2415634744"
    },
    {
      "type": "Feature",
      "properties": {
        "@id": "node/2420103497",
        "addr:city": "Seattle",
        "addr:housenumber": "121",
        "addr:postcode": "98103",
        "addr:street": "North 85th Street",
        "check_date": "2024-06-23",
        "name": "Yus Health Wellness",
        "opening_hours": "10:00-22:00",
        "shop": "massage",
        "source": "King County GIS;data.seattle.gov"
      },
      "geometry": {
        "type": "Point",
        "coordinates": [
          -122.356968,
          47.6904593
        ]
      },
      "id": "node/2420103497"
    },
    {
      "type": "Feature",
      "properties": {
        "@id": "node/2423615162",
        "addr:city": "Seattle",
        "addr:housenumber": "4104",
        "addr:postcode": "98112",
        "addr:street": "East Madison Street",
        "addr:unit": "1",
        "amenity": "spa",
        "name": "Studio Karri L.",
        "phone": "+1-206-390-4818",
        "website": "http://www.studiokarril.com/",
        "wifi": "no"
      },
      "geometry": {
        "type": "Point",
        "coordinates": [
          -122.279035,
          47.6346764
        ]
      },
      "id": "node/2423615162"
    },
    {
      "type": "Feature",
      "properties": {
        "@id": "node/2424890863",
        "addr:city": "Seattle",
        "addr:housenumber": "2019",
        "addr:postcode": "98107",
        "addr:state": "WA",
        "addr:street": "Northwest Market Street",
        "addr:unit": "C",
        "name": "Relaxing Station",
        "phone": "+1-425-655-5555",
        "shop": "massage"
      },
      "geometry": {
        "type": "Point",
        "coordinates": [
          -122.383491,
          47.6685141
        ]
      },
      "id": "node/2424890863"
    },
    {
      "type": "Feature",
      "properties": {
        "@id": "node/2432755923",
        "name": "The Chiroport",
        "shop": "massage"
      },
      "geometry": {
        "type": "Point",
        "coordinates": [
          -115.1483283,
          36.0829911
        ]
      },
      "id": "node/2432755923"
    },
    {
      "type": "Feature",
      "properties": {
        "@id": "node/2434447212",
        "addr:city": "Seattle",
        "addr:housenumber": "7000",
        "addr:postcode": "98115",
        "addr:street": "Roosevelt Way Northeast",
        "name": "Be Fluid Bodywork",
        "opening_hours": "Mo-Fr 11:00-19:30",
        "phone": "+1-206-456-6316",
        "shop": "massage",
        "website": "https://befluidbodywork.com/"
      },
      "geometry": {
        "type": "Point",
        "coordinates": [
          -122.3171013,
          47.6795875
        ]
      },